[
  {
    "id": "",
    "name": "闫XX",
    "age": 22,
    "sex": -1,
    "address": "河南省商丘市夏邑县夏邑县人民医院感染科内二科",
    "myParentNCP": "",
    "reportTime": "2020-01-27",
    "info": "闫XX，男，22岁，闫XX在武汉市汉口经营早餐店，距离武汉华南海鲜市场约6公里。17日闫XX感觉头痛，随后在武汉民主二街某社区诊所输液。18日乘坐火车途中出现发热，18时左右到家后随即到卫生室就诊，以感冒发烧予以抗病毒、消炎等注射治疗；21日20时左右开车到夏邑县中医院就诊，未做其他治疗便返回家中；22日14时左右患者到夏邑县人民医院感染科内二科就诊，现隔离治疗，病情稳定。该患者共确认密切接触人员5人，现居家观察。",
    "path": {
      "2020-01-17": [
        {
          "lat": 30.623735,
          "lng": 114.268361,
          "address": "在武汉市汉口经营早餐店，距离武汉华南海鲜市场约6公里",
          "time": "2020-01-17 00:00:00"
        },
        {
          "lat": 30.58088,
          "lng": 114.28555,
          "address": "武汉民主二街某社区诊所",
          "time": "2020-01-17 12:00:00"
        }
      ],
      "2020-01-18": [
        {
          "lat": 34.241732,
          "lng": 116.147426,
          "address": "到家后随即到卫生室就诊",
          "time": "2020-01-18 18:00:00"
        }
      ],
      "2020-01-21": [
        {
          "lat": 34.240943,
          "lng": 116.154228,
          "address": "夏邑县中医院",
          "time": "2020-01-21 20:00:00"
        }
      ],
      "2020-01-22": [
        {
          "lat": 34.246024,
          "lng": 116.150112,
          "address": "夏邑县人民医院感染科内二科",
          "time": "2020-01-22 14:00:00"
        }
      ],
      "2020-01-26": [
        {
          "lat": 34.246024,
          "lng": 116.150112,
          "address": "夏邑县人民医院感染科内二科",
          "time": "2020-01-26 00:00:00"
        }
      ]
    }
  },
  {
    "id": "",
    "name": "季XX",
    "age": 24,
    "sex": 0,
    "address": "河南省商丘市夏邑县罗庄镇",
    "myParentNCP": "",
    "reportTime": "2020-01-27",
    "info": "季XX，女，24岁，学生，家住夏邑县罗庄镇，就读于武汉大学，于18日乘火车返程，患者于1月19日出现发热症状，伴头痛，22日到夏邑仁爱佳美医院就诊，后到市立医院进一步检查，以新型冠状病毒感染肺炎疑似病例收住入院，目前病情稳定。该患者共确认密切接触人员20人，现居家观察",
    "path": {
      "2020-01-18": [
        {
          "lat": 30.543803,
          "lng": 114.372921,
          "address": "武汉大学",
          "time": "2020-01-18 00:00:00"
        },
        {
          "lat": 34.109374,
          "lng": 115.999488,
          "address": "河南省商丘市夏邑县罗庄镇",
          "time": "2020-01-18 12:00:00"
        }
      ],
      "2020-01-19": [
        {
          "lat": 34.109374,
          "lng": 115.999488,
          "address": "河南省商丘市夏邑县罗庄镇",
          "time": "2020-01-19 00:00:00"
        }
      ],
      "2020-01-22": [
        {
          "lat": 34.10308,
          "lng": 115.969523,
          "address": "夏邑仁爱佳美医院",
          "time": "2020-01-22 00:00:00"
        },
        {
          "lat": 34.355711,
          "lng": 115.671423,
          "address": "商丘市立医院",
          "time": "2020-01-22 12:00:00"
        }
      ]
    }
  },
  {
    "id": "",
    "name": "冯XX",
    "age": 27,
    "sex": 0,
    "address": "河南省商丘市夏邑县罗庄镇",
    "myParentNCP": "",
    "reportTime": "2020-01-27",
    "info": " 冯XX,，女，27岁，在武汉工作，1月17号乘火车从湖北汉口乘车到达民权家中，1月17号晚上出现浑身发冷、咳嗽、鼻塞、肌肉酸痛、眼眶痛等症状，随自行服药，用药后未见好转，于1月18日诊所就诊，症状加重并出现乏力、胸闷、呼吸困难等症状， 1月23日去民权县东区人民医院就诊，后转入民权人民医院老院区发热门诊就诊。经排查共发现密切接触人员共21人，其中家庭成员5人，诊所就诊人员14人，医生及护士2人，已采取相应措施隔离观察。",
    "path": {
      "2020-01-17": [
        {
          "lat": 30.625339,
          "lng": 114.260847,
          "address": "湖北汉口",
          "time": "2020-01-17 00:00:00"
        },
        {
          "lat": 34.655269,
          "lng": 115.15249,
          "address": "民权家中",
          "time": "2020-01-17 12:00:00"
        }
      ],
      "2020-01-18": [
        {
          "lat": 34.655269,
          "lng": 115.15249,
          "address": "1月18日诊所就诊",
          "time": "2020-01-18 00:00:00"
        }
      ],
      "2020-01-23": [
        {
          "lat": 34.6489,
          "lng": 115.180926,
          "address": "民权县东区人民医院",
          "time": "2020-01-23 00:00:00"
        },
        {
          "lat": 34.655482,
          "lng": 115.156534,
          "address": "民权县人民医院",
          "time": "2020-01-23 12:00:00"
        }
      ]
    }
  },
  {
    "id": "",
    "name": "史XX",
    "age": 47,
    "sex": 1,
    "address": "河南省商丘市柘城县安平镇",
    "myParentNCP": "",
    "reportTime": "2020-01-27",
    "info": "史XX，男，47岁，民工，家住商丘市柘城县安平镇，在武汉打工，于1月16日乘火车返程。患者于1月20日无明显诱因出现发热，伴乏力、畏寒，当日在安平镇卫生院就诊，于21日到柘城县人民医院就诊，医生询问工作地点后，建议其到市立医院就诊，21日18时患者到市立医院就诊，以新型冠状病毒感染肺炎疑似病例收住入院，目前病情稳定。患者发病后与其妻子、2个儿子有过密切接触，否认有其他密切接触者，现隔离观察。",
    "path": {
      "2020-01-16": [
        {
          "lat": 30.625339,
          "lng": 114.260847,
          "address": "武汉",
          "time": "2020-01-16 00:00:00"
        },
        {
          "lat": 33.992809,
          "lng": 115.142439,
          "address": "河南省商丘市柘城县安平镇家中",
          "time": "2020-01-16 12:00:00"
        }
      ],
      "2020-01-20": [
        {
          "lat": 33.992809,
          "lng": 115.142439,
          "address": "河南省商丘市柘城县安平镇家中",
          "time": "2020-01-20 12:00:00"
        }
      ],
      "2020-01-21": [
        {
          "lat": 34.07513,
          "lng": 115.317926,
          "address": "柘城县人民医院",
          "time": "2020-01-21 12:00:00"
        },
        {
          "lat": 34.355711,
          "lng": 115.671423,
          "address": "商丘市立医院",
          "time": "2020-01-21 18:00:00"
        }
      ]
    }
  },
  {
    "id": "",
    "name": "张XX",
    "age": 43,
    "sex": 1,
    "address": "河南省商丘市示范区平安街道办事处",
    "myParentNCP": "",
    "reportTime": "2020-01-27",
    "info": "张XX，男，43岁，家住示范区平安街道办事处，夫妻二人在武汉做生意，于1月14日两人坐高铁至商丘高铁站下车，乘坐出租车归家。患者20日晚上出现发热，无其他症状，至诊所诊疗，24日发热症状未见减轻，至商丘市第一人民医院诊治，后转诊商丘市立医院，病情稳定。密切接触6人，居家观察。",
    "path": {
      "2020-01-14": [
        {
          "lat": 30.625339,
          "lng": 114.260847,
          "address": "武汉",
          "time": "2020-01-14 00:00:00"
        },
        {
          "lat": 34.404408,
          "lng": 115.709259,
          "address": "河南省商丘市示范区平安街道办事处",
          "time": "2020-01-14 12:00:00"
        }
      ],
      "2020-01-20": [
        {
          "lat": 34.404408,
          "lng": 115.709259,
          "address": "河南省商丘市示范区平安街道办事处",
          "time": "2020-01-20 12:00:00"
        }
      ],
      "2020-01-24": [
        {
          "lat": 34.401698,
          "lng": 115.630326,
          "address": "商丘市第一人民医院",
          "time": "2020-01-24 00:00:00"
        },
        {
          "lat": 34.355711,
          "lng": 115.671423,
          "address": "商丘市立医院",
          "time": "2020-01-24 12:00:00"
        }
      ]
    }
  },
  {
    "id": "",
    "name": "焦XX",
    "age": 36,
    "sex": 1,
    "address": "河南省商丘市夏邑县罗庄镇",
    "myParentNCP": "",
    "reportTime": "2020-01-27",
    "info": "焦XX，男，36岁，家住夏邑县罗庄镇。自述于1月11日从广州返程，途中在武汉转乘，12日抵商，患者于20日无明显诱因出现发热，自行驾车去夏邑县人民医院就诊；于22日自驾赶赴商丘市立医院就诊，以新型冠状病毒感染肺炎疑似病例收住入院，患者目前病情稳定。走访小区物业核实患者未与小区其他居民有接触史。",
    "path": {
      "2020-01-11": [
        {
          "lat": 30.625339,
          "lng": 114.260847,
          "address": "武汉",
          "time": "2020-01-11 00:00:00"
        }
      ],
      "2020-01-12": [
        {
          "lat": 34.109374,
          "lng": 115.999488,
          "address": "河南省商丘市夏邑县罗庄镇",
          "time": "2020-01-12 12:00:00"
        }
      ],
      "2020-01-20": [
        {
          "lat": 34.246024,
          "lng": 116.150112,
          "address": "夏邑县人民医院",
          "time": "2020-01-20 00:00:00"
        }
      ],
      "2020-01-22": [
        {
          "lat": 34.355711,
          "lng": 115.671423,
          "address": "商丘市立医院",
          "time": "2020-01-22 00:00:00"
        }
      ]
    }
  },
  {
    "id": "",
    "name": "张XX",
    "age": 45,
    "sex": 0,
    "address": "河南省商丘市示范区",
    "myParentNCP": "",
    "reportTime": "2020-01-28",
    "info": "张XX，女，45岁，商丘市示范区人，有武汉旅行史。1月24日发病，1月25日入商丘市中医院就诊，后送至市立医院救治，27日被确诊为新型冠状病毒感染的肺炎，目前病情轻症，体征平稳。已追踪到密切接触者3人，均在医学观察中。",
    "path": {
      "2020-01-14": [
        {
          "lat": 30.625339,
          "lng": 114.260847,
          "address": "武汉",
          "time": "2020-01-14 00:00:00"
        }
      ],
      "2020-01-24": [
        {
          "lat": 34.422087,
          "lng": 115.697195,
          "address": "河南省商丘市示范区",
          "time": "2020-01-24 12:00:00"
        }
      ],
      "2020-01-25": [
        {
          "lat": 34.441394,
          "lng": 115.668518,
          "address": "商丘市中医院",
          "time": "2020-01-25 00:00:00"
        }
      ],
      "2020-01-27": [
        {
          "lat": 34.355711,
          "lng": 115.671423,
          "address": "商丘市立医院",
          "time": "2020-01-27 00:00:00"
        }
      ]
    }
  },
  {
    "id": "",
    "name": "季XX",
    "age": 62,
    "sex": 1,
    "address": "河南省商丘市睢阳区包公庙乡",
    "myParentNCP": "",
    "reportTime": "2020-01-29",
    "info": "季XX，男，62岁，现住睢阳区包公庙乡，发病前曾在武汉市务工。1月19日出现发热，伴腹胀、胸闷等症状，到卫生院就诊病情反复；1月26日去市第一人民医院就诊，当天转入市立医院治疗，28日被确诊为新型冠状病毒感染的肺炎病例。目前病情轻症，体征平稳；已追踪到密切接触者8人，均在医学观察中。",
    "path": {
      "2020-01-09": [
        {
          "lat": 30.625339,
          "lng": 114.260847,
          "address": "武汉",
          "time": "2020-01-09 00:00:00"
        }
      ],
      "2020-01-19": [
        {
          "lat": 34.110138,
          "lng": 115.600871,
          "address": "睢阳区包公庙乡",
          "time": "2020-01-19 12:00:00"
        }
      ],
      "2020-01-26": [
        {
          "lat": 34.401698,
          "lng": 115.630326,
          "address": "商丘市第一人民医院",
          "time": "2020-01-26 00:00:00"
        }
      ],
      "2020-01-28": [
        {
          "lat": 34.355711,
          "lng": 115.671423,
          "address": "商丘市立医院",
          "time": "2020-01-28 00:00:00"
        }
      ]
    }
  },
  {
    "id": "",
    "name": "杨XX",
    "age": 20,
    "sex": 0,
    "address": "河南省商丘市睢阳区",
    "myParentNCP": "",
    "reportTime": "2020-01-29",
    "info": "杨XX，女，20岁，商丘市睢阳区人，中南财经政法大学学生，1月14日返程到家中。患者1月22日晚出现咳嗽，随后到商丘市第一人民医院就诊，1月25日转入市立医院，28日被确诊为新型冠状病毒感染的肺炎病例，目前病情稳定；已追踪到密切接触者3人，均在医学观察中。",
    "path": {
      "2020-01-13": [
        {
          "lat": 30.625339,
          "lng": 114.260847,
          "address": "武汉中南财经政法大学",
          "time": "2020-01-13 00:00:00"
        }
      ],
      "2020-01-14": [
        {
          "lat": 34.395449,
          "lng": 115.659773,
          "address": "河南省商丘市睢阳区",
          "time": "2020-01-14 00:00:00"
        }
      ],
      "2020-01-22": [
        {
          "lat": 34.401698,
          "lng": 115.630326,
          "address": "商丘市第一人民医院",
          "time": "2020-01-22 00:00:00"
        }
      ],
      "2020-01-25": [
        {
          "lat": 34.355711,
          "lng": 115.671423,
          "address": "商丘市立医院",
          "time": "2020-01-25 00:00:00"
        }
      ]
    }
  },
  {
    "id": "",
    "name": "冯XX",
    "age": 55,
    "sex": 0,
    "address": "河南省商丘市示范区",
    "myParentNCP": "",
    "reportTime": "2020-01-29",
    "info": "冯XX，女，55岁，家住商丘市示范区，1月18日于汉口站返回商丘。1月19日体温升高，到诊所输液治疗，1月25日到市第三人民医院就诊，随后转入市立医院，28日被确诊为新型冠状病毒感染的肺炎病例，目前病情轻症，体征平稳；已追踪到密切接触者2人，均在医学观察中。",
    "path": {
      "2020-01-18": [
        {
          "lat": 30.625339,
          "lng": 114.260847,
          "address": "武汉",
          "time": "2020-01-18 00:00:00"
        }
      ],
      "2020-01-19": [
        {
          "lat": 34.404408,
          "lng": 115.709259,
          "address": "河南省商丘市示范区",
          "time": "2020-01-19 00:00:00"
        }
      ],
      "2020-01-25": [
        {
          "lat": 34.45962,
          "lng": 115.669807,
          "address": "商丘市第三人民医院",
          "time": "2020-01-25 00:00:00"
        }
      ],
      "2020-01-28": [
        {
          "lat": 34.355711,
          "lng": 115.671423,
          "address": "商丘市立医院",
          "time": "2020-01-28 00:00:00"
        }
      ]
    }
  },
  {
    "id": "",
    "name": "翟XX",
    "age": 35,
    "sex": 1,
    "address": "河南省商丘市民权县",
    "myParentNCP": "unknown",
    "reportTime": "2020-01-29",
    "info": "翟XX，男，35岁，商丘市民权人，有与武汉返回人员接触史。1月25日有发热症状，27日到民权县人民医院就诊，28日被确诊为新型冠状病毒感染的肺炎病例。目前病情轻症，体征平稳。已追踪到密切接触者26人（其中1人为医务人员），均在医学观察中。",
    "path": {
      "2020-01-25": [
        {
          "lat": 34.655269,
          "lng": 115.15249,
          "address": "民权家中",
          "time": "2020-01-25 00:00:00"
        }
      ],
      "2020-01-27": [
        {
          "lat": 34.655482,
          "lng": 115.156534,
          "address": "民权县人民医院",
          "time": "2020-01-27 00:00:00"
        }
      ]
    }
  },
  {
    "id": "",
    "name": "朱XX",
    "age": 47,
    "sex": 0,
    "address": "河南省商丘市梁园区",
    "myParentNCP": "",
    "reportTime": "2020-01-29",
    "info": "朱XX，女，47岁，商丘市梁园区人，在武汉就业，1月14日返回商丘家中。1月20日开始出现发热症状，自行在药店购药服用，1月26日前往市第三人民医院就诊，随后转诊至市立医，28日被确诊为新型冠状病毒感染的肺炎病例。目前病情轻症，体征平稳。已追踪到密切接触者10人，均在医学观察中。",
    "path": {
      "2020-01-10": [
        {
          "lat": 30.625339,
          "lng": 114.260847,
          "address": "武汉",
          "time": "2020-01-10 00:00:00"
        }
      ],
      "2020-01-14": [
        {
          "lat": 34.450196,
          "lng": 115.620244,
          "address": "河南省商丘市梁园区",
          "time": "2020-01-14 00:00:00"
        }
      ],
      "2020-01-20": [
        {
          "lat": 34.450196,
          "lng": 115.620244,
          "address": "河南省商丘市梁园区",
          "time": "2020-01-20 00:00:00"
        }
      ],
      "2020-01-26": [
        {
          "lat": 34.45962,
          "lng": 115.669807,
          "address": "商丘市第三人民医院",
          "time": "2020-01-26 00:00:00"
        }
      ],
      "2020-01-28": [
        {
          "lat": 34.355711,
          "lng": 115.671423,
          "address": "商丘市立医院",
          "time": "2020-01-28 00:00:00"
        }
      ]
    }
  },
  {
    "id": "",
    "name": "季XX",
    "age": 28,
    "sex": 1,
    "address": "河南省商丘市睢阳区",
    "myParentNCP": "unknown",
    "reportTime": "2020-01-29",
    "info": "季XX，男，28岁，商丘市睢阳区人，有与感染者接触史。1月26日出现发热症状，1月27日去市第一人民医院就诊，后转诊市立医院隔离检查治疗，28日被确诊为新型冠状病毒感染的肺炎病例。目前病情轻症，体征平稳。已追踪到密切接触者10人，均在医学观察中。",
    "path": {
      "2020-01-26": [
        {
          "lat": 34.395449,
          "lng": 115.659773,
          "address": "河南省商丘市睢阳区",
          "time": "2020-01-26 00:00:00"
        }
      ],
      "2020-01-27": [
        {
          "lat": 34.401698,
          "lng": 115.630326,
          "address": "商丘市第一人民医院",
          "time": "2020-01-27 00:00:00"
        }
      ],
      "2020-01-28": [
        {
          "lat": 34.355711,
          "lng": 115.671423,
          "address": "商丘市立医院",
          "time": "2020-01-28 00:00:00"
        }
      ]
    }
  },
  {
    "id": "",
    "name": "张XX",
    "age": 49,
    "sex": 1,
    "address": "河南省商丘市梁园区",
    "myParentNCP": "",
    "reportTime": "2020-01-29",
    "info": "张XX，男，49岁，商丘市梁园区人，在武汉就业。1月14日返回商丘家中，1月24日开始出现发热症状， 1月27日去市第三人民医院就诊，随后转诊到市立医院，28日被确诊为新型冠状病毒感染的肺炎病例，目前病情轻症，体征平稳。已追踪到密切接触者10人，均在医学观察中。",
    "path": {
      "2020-01-13": [
        {
          "lat": 30.625339,
          "lng": 114.260847,
          "address": "武汉",
          "time": "2020-01-13 00:00:00"
        }
      ],
      "2020-01-14": [
        {
          "lat": 34.450196,
          "lng": 115.620244,
          "address": "河南省商丘市梁园区",
          "time": "2020-01-14 00:00:00"
        }
      ],
      "2020-01-24": [
        {
          "lat": 34.450196,
          "lng": 115.620244,
          "address": "河南省商丘市梁园区",
          "time": "2020-01-24 00:00:00"
        }
      ],
      "2020-01-27": [
        {
          "lat": 34.45962,
          "lng": 115.669807,
          "address": "商丘市第三人民医院",
          "time": "2020-01-27 00:00:00"
        }
      ],
      "2020-01-28": [
        {
          "lat": 34.355711,
          "lng": 115.671423,
          "address": "商丘市立医院",
          "time": "2020-01-28 00:00:00"
        }
      ]
    }
  },
  {
    "id": "",
    "name": "",
    "age": -1,
    "sex": -1,
    "address": "",
    "myParentNCP": "",
    "reportTime": "2020-01-30",
    "info": "赵XX，男，32岁，商丘市柘城县人，有武汉居住史，1月17日到达家中。1月24日出现发烧、乏力、咳黄色粘痰等症状，当日到柘城县人民医院就诊，29日被确诊为新型冠状病毒感染的肺炎病例，目前病情轻症，体征平稳。已追踪到密切接触者9人，均居家隔离医学观察中。,\n   ",
    "path": {
      "2020-01-16": [
        {
          "lat": 30.625339,
          "lng": 114.260847,
          "address": "武汉",
          "time": "2020-01-16 00:00:00"
        }
      ],
      "2020-01-17": [
        {
          "lat": 33.992809,
          "lng": 115.142439,
          "address": "河南省商丘市柘城县",
          "time": "2020-01-17 00:00:00"
        }
      ]
    }
  },
  {
    "id": "",
    "name": "",
    "age": -1,
    "sex": -1,
    "address": "河南省商丘市示范区",
    "myParentNCP": "unknown",
    "reportTime": "2020-01-30",
    "info": "刘XX，女，44岁，商丘市示范区人，长期居住武汉。1月14日回到家中，21日出现嗓子干痒、干咳症状，26日出现发热症状在诊所就诊，27日由市一院转诊至市立医院，29日被确诊为新型冠状病毒感染的肺炎病例，目前病情轻症，体征平稳。已追踪到密切接触者3人，均居家隔离医学观察中。,\n  ",
    "path": {
      "2020-01-13": [
        {
          "lat": 30.625339,
          "lng": 114.260847,
          "address": "武汉",
          "time": "2020-01-13 00:00:00"
        }
      ],
      "2020-01-14": [
        {
          "lat": 34.404408,
          "lng": 115.709259,
          "address": "河南省商丘市示范区",
          "time": "2020-01-14 00:00:00"
        }
      ]
    }
  },
  {
    "id": "",
    "name": "",
    "age": -1,
    "sex": -1,
    "address": "河南省商丘市梁园区",
    "myParentNCP": "unknown",
    "reportTime": "2020-01-30",
    "info": "张XX，女，79岁，商丘市梁园区人，曾与确诊病例密切接触。1月28日晚出现发热症状，1月29日入商丘市立医院就诊，29日被确诊为新型冠状病毒感染的肺炎病例；目前病情轻症，体征平稳。已追踪到密切接触者2人，均居家隔离医学观察中。,\n  ",
    "path": {
      "2020-01-28": [
        {
          "lat": 34.450196,
          "lng": 115.620244,
          "address": "河南省商丘市梁园区",
          "time": "2020-01-28 00:00:00"
        }
      ]
    }
  },
  {
    "id": "",
    "name": "",
    "age": -1,
    "sex": -1,
    "address": "河南省商丘市梁园区",
    "myParentNCP": "",
    "reportTime": "2020-01-30",
    "info": "王XX，女，53岁，商丘市梁园区人，近半年居住武汉，1月16日返乡。2020年1月19日无明显诱因出现发热，伴上腹部不适，到卫生所就诊未见好转，28日到商丘市第三人民医院就诊，当日转入商丘市立医院，29日被确诊为新型冠状病毒感染的肺炎病例；目前病情轻症，体征平稳。已追踪到密切接触者2人，均居家隔离医学观察中。,\n  ",
    "path": {
      "2020-01-15": [
        {
          "lat": 30.625339,
          "lng": 114.260847,
          "address": "武汉",
          "time": "2020-01-10 00:00:00"
        }
      ],
      "2020-01-16": [
        {
          "lat": 34.450196,
          "lng": 115.620244,
          "address": "河南省商丘市梁园区",
          "time": "2020-01-14 00:00:00"
        }
      ]
    }
  },
  {
    "id": "",
    "name": "万XX",
    "age": -1,
    "sex": 1,
    "address": "湖北省武汉市",
    "myParentNCP": "",
    "reportTime": "2020-01-31",
    "info": "万XX，男，武汉市人，在武汉市本地从事个体户经营，1月22日患者到宁陵县石桥镇探亲，居住至今，期间均在家不曾外出。患者于1月28日出现不明原因发热、咳嗽、咳痰，当日就诊于宁陵县人民医院，经市疾控中心检测确诊为新型冠状病毒肺炎确诊病例，目前体征平稳。已追踪到密切接触者11人，均居家隔离医学观察中。",
    "path": {
      "2020-01-12": [
        {
          "lat": 30.625339,
          "lng": 114.260847,
          "address": "武汉",
          "time": "2020-01-12 00:00:00"
        }
      ],
      "2020-01-22": [
        {
          "lat": 34.467578,
          "lng": 115.320569,
          "address": "河南省商丘市宁陵县",
          "time": "2020-01-22 00:00:00"
        }
      ],
      "2020-01-28": [
        {
          "lat": 34.461946,
          "lng": 115.310162,
          "address": "河南省商丘市宁陵县人民医院",
          "time": "2020-01-28 00:00:00"
        }
      ]
    }
  },
  {
    "id": "",
    "name": "王XX",
    "age": 34,
    "sex": 1,
    "address": "河南省商丘市宁陵县华堡镇",
    "myParentNCP": "",
    "reportTime": "2020-01-31",
    "info": "王XX，男，34岁，现住宁陵华堡镇。在武汉居住多年，1月23日回到宁陵华堡镇；24日出现不明原因的发热，到宁陵县人民医院就诊，门诊处理后未入院 ，27日再次到宁陵县人民医院住院治疗，经检测确诊为新型冠状病毒肺炎确诊病例，目前体征平稳。已追踪到密切接触者10人，均居家隔离医学观察中,。\n",
    "path": {
      "2020-01-14": [
        {
          "lat": 30.625339,
          "lng": 114.260847,
          "address": "武汉",
          "time": "2020-01-13 00:00:00"
        }
      ],
      "2020-01-23": [
        {
          "lat": 34.298904,
          "lng": 115.311827,
          "address": "河南省商丘市宁陵县华堡镇",
          "time": "2020-01-23 00:00:00"
        }
      ],
      "2020-01-24": [
        {
          "lat": 34.461946,
          "lng": 115.310162,
          "address": "河南省商丘市宁陵县人民医院",
          "time": "2020-01-24 00:00:00"
        }
      ],
      "2020-01-27": [
        {
          "lat": 34.461946,
          "lng": 115.310162,
          "address": "河南省商丘市宁陵县人民医院",
          "time": "2020-01-27 00:00:00"
        }
      ]
    }
  },
  {
    "id": "",
    "name": "李XX",
    "age": 32,
    "sex": 0,
    "address": "河南省商丘市柘城县岗王镇",
    "myParentNCP": "unknown",
    "reportTime": "2020-01-31",
    "info": "  李XX，女，32岁，柘城县岗王镇人，与确诊病例赵XX夫妻关系。患者于2020年1月25号出现发热、咳嗽症状，直接到柘城县人民医院就诊，1月30日确诊为新型冠状病毒肺炎确诊病例。已追踪到密切接触者32人，均居家隔离医学观察中。\n",
    "path": {
      "2020-01-24": [
        {
          "lat": 34.104802,
          "lng": 115.231305,
          "address": "河南省商丘市柘城县岗王镇",
          "time": "2020-01-24 00:00:00"
        }
      ],
      "2020-01-25": [
        {
          "lat": 34.07513,
          "lng": 115.317926,
          "address": "柘城县人民医院",
          "time": "2020-01-25 00:00:00"
        }
      ],
      "2020-01-30": [
        {
          "lat": 34.07513,
          "lng": 115.317926,
          "address": "柘城县人民医院",
          "time": "2020-01-30 00:00:00"
        }
      ]
    }
  },
  {
    "id": "",
    "name": "张XX",
    "age": 45,
    "sex": 1,
    "address": "河南省商丘市柘城县皇集乡",
    "myParentNCP": "",
    "reportTime": "2020-01-31",
    "info": "张XX，男、45岁，柘城县皇集乡人。在武汉市经商，1月12号回到柘城， 1月26日出现发热、咳嗽等症状，27日到柘城县人民医院入院就诊，1月30日经市疾控中心检测确诊为新型冠状病毒肺炎确诊病例，目前体征平稳。已追踪到密切接触者14人，均居家隔离医学观察中。",
    "path": {
      "2020-01-11": [
        {
          "lat": 30.625339,
          "lng": 114.260847,
          "address": "武汉",
          "time": "2020-01-11 00:00:00"
        }
      ],
      "2020-01-12": [
        {
          "lat": 33.992809,
          "lng": 115.142439,
          "address": "河南省商丘市柘城县",
          "time": "2020-01-12 12:00:00"
        }
      ],
      "2020-01-26": [
        {
          "lat": 34.07513,
          "lng": 115.317926,
          "address": "柘城县人民医院",
          "time": "2020-01-26 12:00:00"
        }
      ]
    }
  },
  {
    "id": "",
    "name": "余XX",
    "age": 50,
    "sex": 1,
    "address": "河南省商丘市示范区",
    "myParentNCP": "unknown",
    "reportTime": "2020-01-31",
    "info": " 余XX，男，50岁，现住商丘市示范区中州街道。患者爱人张XX是新型冠状病毒肺炎确诊病例，与其有密切接触史，1月26日出现发热症状伴寒战，肌肉酸痛，28日就诊于商丘市第三人民医院，后转诊商丘市立医院。经市疾控中心检测确诊为新型冠状病毒肺炎确诊病例，目前体征平稳。已追踪到密切接触者3人，均居家隔离医学观察中。",
    "path": {
      "2020-01-26": [
        {
          "lat": 34.404408,
          "lng": 115.709259,
          "address": "河南省商丘市示范区",
          "time": "2020-01-26 12:00:00"
        }
      ],
      "2020-01-28": [
        {
          "lat": 34.45962,
          "lng": 115.669807,
          "address": "商丘市第三人民医院",
          "time": "2020-01-28 00:00:00"
        }
      ],
      "2020-01-29": [
        {
          "lat": 34.355711,
          "lng": 115.671423,
          "address": "商丘市立医院",
          "time": "2020-01-29 00:00:00"
        }
      ]
    }
  },
  {
    "id": "",
    "name": "赵XX",
    "age": 47,
    "sex": 0,
    "address": "河南省商丘市示范区",
    "myParentNCP": "unknown",
    "reportTime": "2020-01-31",
    "info": "赵XX，女，47岁，现住商丘市示范区中州办事处。1月22日出现发热，伴头痛、咳痰、胸闷症状，1月25日到商丘市第三人民医院就诊，后转入商丘市市立医院诊治，经市疾控中心检测确诊为新型冠状病毒肺炎确诊病例，目前体征平稳。已追踪到密切接触者6人，均居家隔离医学观察中。\n",
    "path": {
      "2020-01-22": [
        {
          "lat": 34.404408,
          "lng": 115.709259,
          "address": "河南省商丘市示范区",
          "time": "2020-01-22 12:00:00"
        }
      ],
      "2020-01-25": [
        {
          "lat": 34.45962,
          "lng": 115.669807,
          "address": "商丘市第三人民医院",
          "time": "2020-01-25 00:00:00"
        }
      ],
      "2020-01-29": [
        {
          "lat": 34.355711,
          "lng": 115.671423,
          "address": "商丘市立医院",
          "time": "2020-01-29 00:00:00"
        }
      ]
    }
  },
  {
    "id": "",
    "name": "杨XX",
    "age": 29,
    "sex": 1,
    "address": "河南省商丘市夏邑县车站镇",
    "myParentNCP": "",
    "reportTime": "2020-01-31",
    "info": "杨XX，男，29岁，家住商丘市夏邑县车站镇。长期居住于武汉市，1月19日返回夏邑县车站镇，1月20日出现发热症状到诊所诊治， 29日再次出现发热症状，30日前往商丘市立医院发热门诊就诊，确诊为新型冠状病毒肺炎确诊病例，目前体征平稳。已追踪到密切接触者4人，均居家隔离医学观察中,。\n",
    "path": {
      "2020-01-10": [
        {
          "lat": 30.625339,
          "lng": 114.260847,
          "address": "武汉",
          "time": "2020-01-10 00:00:00"
        }
      ],
      "2020-01-19": [
        {
          "lat": 34.240943,
          "lng": 116.154228,
          "address": "河南省商丘市夏邑县车站镇",
          "time": "2020-01-19 00:00:00"
        }
      ],
      "2020-01-30": [
        {
          "lat": 34.355711,
          "lng": 115.671423,
          "address": "商丘市立医院",
          "time": "2020-01-30 00:00:00"
        }
      ]
    }
  },
  {
    "id": "",
    "name": "张XX",
    "age": 27,
    "sex": 1,
    "address": "河南省商丘市虞城县城关镇",
    "myParentNCP": "",
    "reportTime": "2020-01-31",
    "info": "张XX，男，27岁，家住虞城县城关镇。武汉市某医院医务工作者，1月20日返回虞城，当日出现发热症状，到虞城县人民医院就诊，经市疾控中心检测确诊为新型冠状病毒肺炎确诊病例，目前体征平稳。密切接触者均居家隔离医学观察中。",
    "path": {
      "2020-01-10": [
        {
          "lat": 30.625339,
          "lng": 114.260847,
          "address": "武汉",
          "time": "2020-01-10 00:00:00"
        }
      ],
      "2020-01-20": [
        {
          "lat": 34.406972,
          "lng": 115.834996,
          "address": "河南省商丘市虞城县城关镇",
          "time": "2020-01-20 00:00:00"
        }
      ]
    }
  },
  {
    "id": "",
    "name": "黑XX",
    "age": 56,
    "sex": 0,
    "address": "河南省商丘市虞城县",
    "myParentNCP": "unknown",
    "reportTime": "2020-01-31",
    "info": "  黑XX，女，56岁，家住虞城县店集乡。1月24日出现发热等症状，到虞城县人民医院入院就诊，经市疾控中心检测确诊为新型冠状病毒肺炎确诊病例，目前体征平稳。密切接触者均居家隔离医学观察中。",
    "path": {
      "2020-01-24": [
        {
          "lat": 34.406972,
          "lng": 115.834996,
          "address": "河南省商丘市虞城县",
          "time": "2020-01-24 00:00:00"
        }
      ]
    }
  },
  {
    "id": "",
    "name": "xx",
    "age": -1,
    "sex": -1,
    "address": "河南省商丘市永城市",
    "myParentNCP": "",
    "reportTime": "2020-02-01",
    "info": "王某某，女，52岁，现住永城市演集镇天齐村，2019年12月在湖北仙桃居住，2020年1月20日从汉口返回永城，经宣传劝导，返乡后居家观察，无外出。1月25日，体温37.5℃，咳嗽。1月26日自驾车至永城市人民医院定点医院就诊，随即接受隔离观察治疗。1月31日采样送检商丘市疾控中心，经检测新型冠病毒核酸呈阳性，确诊为新型冠状病毒感染的肺炎病例，目前病情稳定。密切接触者4人，均为家人，全部居家隔离观察，无不适。\n  经跟踪调查王某某行程为：1月20日乘坐由仙桃至汉口的D5982动车（座次03车07D），在汉口火车站停留2小时，随后乘坐汉口到商丘T182火车（座次04车085号），21:00在商丘火车站拼车到永城市演集镇天齐村。\n  同时提醒：1月20日乘坐由仙桃至汉口的D5982次动车（座次03车07D），汉口到商丘T182火车（座次04车085号）的同乘旅客及1月20日21:00商丘至永城私家车的司机及乘客看到此信息后，第一时间主动到所辖区政府报告，不要外出，居家隔离观察。如有不适请全程佩戴口罩，拨打当地120到定点医院就诊。\n",
    "path": {
      "2020-01-10": [
        {
          "lat": 30.625339,
          "lng": 114.260847,
          "address": "武汉",
          "time": "2020-01-10 00:00:00"
        }
      ],
      "2020-01-20": [
        {
          "lat": 33.935457,
          "lng": 116.456106,
          "address": "河南省商丘市永城市",
          "time": "2020-01-20 00:00:00"
        }
      ]
    }
  },
  {
    "id": "",
    "name": "xx",
    "age": -1,
    "sex": -1,
    "address": "河南省商丘市永城市",
    "myParentNCP": "NSQ",
    "reportTime": "2020-02-01",
    "info": "刘某某，男，47岁，现住永城市酇城镇夏柏园村。1月20日自驾车自洛阳回永城市酇城镇探亲，无武汉接触史，1月23日，出现发热症状，自驾到酇南村卫生室输液治疗，1月25日自驾到酇城卫生院输液治疗。1月27日自驾车到永城市人民医院就诊。1月29日CT显示：两肺感染较前扩大，随即隔离观察治疗。1月31日采样送检商丘市疾控中心，经检测新型冠病毒核酸呈阳性，确诊为新型冠状病毒感染的肺炎病例，目前病情稳定。刘某某出行方式为自驾，经调查走访，与其接触的医护人员15人、家人及朋友6人，全部居家隔离观察，无不适。",
    "path": {
      "2020-01-18": [
        {
          "lat": 34.626805,
          "lng": 112.460265,
          "address": "洛阳",
          "time": "2020-01-18 00:00:00"
        }
      ],
      "2020-01-20": [
        {
          "lat": 33.935457,
          "lng": 116.456106,
          "address": "河南省商丘市永城市",
          "time": "2020-01-20 00:00:00"
        }
      ]
    }
  },
  {
    "id": "",
    "name": "xx",
    "age": -1,
    "sex": -1,
    "address": "河南省商丘市永城市",
    "myParentNCP": "",
    "reportTime": "2020-02-01",
    "info": "吴某，女，25岁，系湖北联合利华湖北荆州地区业务员，现住永城市东城区。1月18日自汉口返乡，经宣传劝导，居家观察，没有外出。1月24日，体温37℃，由其父亲骑车带其到永煤集团总医院发热门诊就诊，胸片无异常，嘱其继续居家观察，如出现不适，请及时就医。1月28日，体温38.6℃，由其父亲骑车带其到永城市人民医院就诊，随即接受隔离观察治疗。1月31日采样送检商丘市疾控中心，经检测新型冠病毒核酸呈阳性，确诊为新型冠状病毒感染的肺炎病例，目前病情稳定。吴某自回来后，居家观察，除自行前往医院就诊外未外出。经调查走访，密切接触者医护人员5人、家人3人及出租车司机1人，全部居家隔离观察，无不适。\n  经跟踪调查吴某行程为：1月18日乘坐由汉口到淮北的D9304次动车（座次7车09F)，19:00在淮北乘坐车牌号为皖FT1672出租车到永城市东城区。\n  同时提醒：1月18日由汉口到淮北的D9304动车（座次7车09F)同乘旅客，19:00淮北至永城皖FT1672出租车司机及乘客看到此信息后，第一时间主动到所辖区政府报告，不要外出，居家隔离观察。如有不适请全程佩戴口罩，拨打当地120到定点医院就诊,。\n",
    "path": {
      "2020-01-18": [
        {
          "lat": 30.625339,
          "lng": 114.260847,
          "address": "武汉",
          "time": "2020-01-18 00:00:00"
        }
      ],
      "2020-01-24": [
        {
          "lat": 33.935457,
          "lng": 116.456106,
          "address": "河南省商丘市永城市",
          "time": "2020-01-24 00:00:00"
        }
      ]
    }
  },
  {
    "id": "",
    "name": "",
    "age": -1,
    "sex": -1,
    "address": "河南省商丘市夏邑县",
    "myParentNCP": "",
    "reportTime": "2020-02-01",
    "info": "扈某某，男、31岁，夏邑县杨集镇人。患者在武汉市硚口区经商，1月23日回到夏邑县城，25日上午无症状低烧，29日到卫生院诊治，随转诊到夏邑县人民医院；31日经市疾控中心检测确诊为新型冠状病毒肺炎确诊病例，目前体征平稳。已追踪到密切接触者22人，均居家隔离医学观察中。\n",
    "path": {
      "2020-01-22": [
        {
          "lat": 30.623735,
          "lng": 114.268361,
          "address": "武汉",
          "time": "2020-01-22 00:00:00"
        }
      ],
      "2020-01-23": [
        {
          "lat": 34.246024,
          "lng": 116.150112,
          "address": "夏邑县",
          "time": "2020-01-23 00:00:00"
        }
      ]
    }
  },
  {
    "id": "",
    "name": "",
    "age": -1,
    "sex": -1,
    "address": "河南省商丘市夏邑县",
    "myParentNCP": "",
    "reportTime": "2020-02-01",
    "info": "  崔某某，男，23岁，家住夏邑县城关镇。因工作需要经常来往于黄冈市和武汉两地，1月20日自武汉回到夏邑县家中。1月21日体温升高、咳痰，连续输液治疗3天，症状好转。29日因咳嗽症状明显加重前往夏邑县人民医院就诊，进行住院隔离治疗；31日经市疾控中心检测确诊为新型冠状病毒肺炎确诊病例，目前体征平稳。已追踪到密切接触者5人，均居家隔离医学观察中。\n",
    "path": {
      "2020-01-19": [
        {
          "lat": 30.623735,
          "lng": 114.268361,
          "address": "武汉",
          "time": "2020-01-19 00:00:00"
        }
      ],
      "2020-01-20": [
        {
          "lat": 34.246024,
          "lng": 116.150112,
          "address": "夏邑县",
          "time": "2020-01-20 00:00:00"
        }
      ]
    }
  },
  {
    "id": "",
    "name": "",
    "age": -1,
    "sex": -1,
    "address": "河南省商丘市睢阳区",
    "myParentNCP": "unknown",
    "reportTime": "2020-02-02",
    "info": "彭某某，男，42岁，商丘市睢阳区人。患者与新冠病毒感染的肺炎确诊病例（赵XX，同事）有密切接触史，1月27日晚出现发热症状，伴干咳、咽痛，自行口服药物，28日再次出现发热症状，到市中医院就诊，31到商丘市第一人民医院治疗，2月1日经市疾控中心检测确诊为新型冠状病毒肺炎确诊病例，目前体征平稳。,\n  ",
    "path": {
      "2020-01-27": [
        {
          "lat": 34.395449,
          "lng": 115.659773,
          "address": "河南省商丘市睢阳区",
          "time": "2020-01-27 00:00:00"
        }
      ]
    }
  },
  {
    "id": "",
    "name": "",
    "age": -1,
    "sex": -1,
    "address": "河南省商丘市梁园区",
    "myParentNCP": "unknown",
    "reportTime": "2020-02-02",
    "info": "张某某，女，47岁，商丘市梁园区人。患者于1月28日出现体温升高、咳痰，前往商丘市第一人民医院就诊，服药物治疗。31日，再次前往商丘市第一人民医院就诊，2月1经市疾控中心检测确诊为新型冠状病毒肺炎确诊病例，目前体征平稳。,\n  ",
    "path": {
      "2020-01-28": [
        {
          "lat": 34.450196,
          "lng": 115.620244,
          "address": "河南省商丘市梁园区",
          "time": "2020-01-28 00:00:00"
        }
      ]
    }
  },
  {
    "id": "",
    "name": "",
    "age": -1,
    "sex": -1,
    "address": "河南省商丘市宁陵县",
    "myParentNCP": "",
    "reportTime": "2020-02-02",
    "info": "冯某某，女，57岁，商丘市宁陵县人。患者一直在武汉市工作，1月22日回到宁陵县孔集乡家中，25日出现不明原因发热、偶有胸闷感，自服药物治疗；30日前往宁陵县人民医院治疗，经市疾控中心检测确诊为新型冠状病毒肺炎确诊病例，目前体征平稳。,\n  ",
    "path": {
      "2020-01-21": [
        {
          "lat": 30.625339,
          "lng": 114.260847,
          "address": "武汉",
          "time": "2020-01-21 00:00:00"
        }
      ],
      "2020-01-22": [
        {
          "lat": 34.467578,
          "lng": 115.320569,
          "address": "河南省商丘市宁陵县",
          "time": "2020-01-22 00:00:00"
        }
      ]
    }
  },
  {
    "id": "",
    "name": "",
    "age": -1,
    "sex": -1,
    "address": "河南省商丘市宁陵县",
    "myParentNCP": "",
    "reportTime": "2020-02-02",
    "info": "徐某某，女，42岁，商丘市宁陵县人。患者长期在武汉居住，1月22日回到宁陵县石桥镇探亲，在宁陵县人民医院陪同其丈夫（万XX，确诊者）多日，无发热、胸闷、咳嗽、乏力等症状，考虑到丈夫病情，30日要求对自己的身体状况做一次体检；经市疾控中心检测确诊为新型冠状病毒肺炎确诊病例，目前体征平稳。,\n  ",
    "path": {
      "2020-01-21": [
        {
          "lat": 30.625339,
          "lng": 114.260847,
          "address": "武汉",
          "time": "2020-01-21 00:00:00"
        }
      ],
      "2020-01-22": [
        {
          "lat": 34.467578,
          "lng": 115.320569,
          "address": "河南省商丘市宁陵县",
          "time": "2020-01-22 00:00:00"
        }
      ]
    }
  },
  {
    "id": "",
    "name": "",
    "age": -1,
    "sex": -1,
    "address": "河南省商丘市梁园区",
    "myParentNCP": "unknown",
    "reportTime": "2020-02-02",
    "info": "赵某某，女，53岁，商丘市梁园区人。患者1月27日曾与新冠肺炎确诊病例有接触史（妹妹赵某，仍在市立医院隔离治疗中），1月31日出现发热、伴腹泻，自行服药未见好转，去商丘市中医院就诊，当日转入商丘市立医院。2月1日经市疾控中心检测确诊为新型冠状病毒肺炎确诊病例，目前体征平稳。,\n  ",
    "path": {
      "2020-01-27": [
        {
          "lat": 34.450196,
          "lng": 115.620244,
          "address": "河南省商丘市梁园区",
          "time": "2020-01-27 00:00:00"
        }
      ]
    }
  },
  {
    "id": "",
    "name": "",
    "age": -1,
    "sex": -1,
    "address": "河南省商丘市梁园区",
    "myParentNCP": "NSQ",
    "reportTime": "2020-02-02",
    "info": "刘某某，男，35岁，商丘市梁园区人。1月14日南宁返乡， 24日开始持续发热，并出现胸闷现象，31日到商丘市第三人民医院住院就诊。经市疾控中心检测确诊为新型冠状病毒肺炎确诊病例，目前体征平稳。",
    "path": {
      "2020-01-14": [
        {
          "lat": 34.450196,
          "lng": 115.620244,
          "address": "河南省商丘市梁园区",
          "time": "2020-01-14 00:00:00"
        }
      ]
    }
  },
  {
    "id": "",
    "name": "",
    "age": -1,
    "sex": -1,
    "address": "河南省商丘市梁园区",
    "myParentNCP": "NSQ",
    "reportTime": "2020-02-02",
    "info": "袁某某，男，34岁，商丘市梁园区人。1月18日从山东曹县回到家中，1月25日开始自觉不适，28日到诊所诊治服药3天，31前往商丘市第三人民医院住院就诊，经市疾控中心检测确诊为新型冠状病毒肺炎确诊病例，目前体征平稳。,\n  ",
    "path": {
      "2020-01-18": [
        {
          "lat": 34.450196,
          "lng": 115.620244,
          "address": "河南省商丘市梁园区",
          "time": "2020-01-18 00:00:00"
        }
      ]
    }
  },
  {
    "id": "",
    "name": "",
    "age": -1,
    "sex": -1,
    "address": "河南省商丘市柘城县",
    "myParentNCP": "",
    "reportTime": "2020-02-03",
    "info": "孙某某，男，28岁，现住柘城县申桥乡刘楼村小朱庄。患者在武汉市武昌区经商，1月23号武汉回来， 29日出现发热、咳嗽等症状，到柘城县人民医院就诊，给予清热解毒口服液等药物口服居家治疗，体温降至正常范围；2月1日再次发热，再次到县人民医院住院治疗，2月3日经市疾控中心检测确诊为新型冠状病毒肺炎确诊病例，目前体征平稳。已追踪到密切接触者7人，均居家隔离医学观察中。,\n  ",
    "path": {
      "2020-01-22": [
        {
          "lat": 30.625339,
          "lng": 114.260847,
          "address": "武汉",
          "time": "2020-01-22 00:00:00"
        }
      ],
      "2020-01-23": [
        {
          "lat": 34.07513,
          "lng": 115.317926,
          "address": "柘城县人民医院",
          "time": "2020-01-23 00:00:00"
        }
      ]
    }
  },
  {
    "id": "",
    "name": "",
    "age": -1,
    "sex": -1,
    "address": "河南省商丘市梁园区",
    "myParentNCP": "unknown",
    "reportTime": "2020-02-03",
    "info": "户某某，男，72岁，汉族，现住梁园区东风办事处豫立首府小区。1月25日出现腹泻、恶心、呕吐，28日自购药物服用，2月1日去商丘市中医院就诊，医生开药居家治疗；2日体温、腹泻症状加重，去商丘市中医院住院治疗，3日经市疾控中心检测确诊为新型冠状病毒肺炎确诊病例，转诊至商丘市立医院住院隔离治疗，目前体征严重。已追踪到密切接触者9人，均居家隔离医学观察中。,\n  ",
    "path": {
      "2020-01-25": [
        {
          "lat": 34.450196,
          "lng": 115.620244,
          "address": "河南省商丘市梁园区",
          "time": "2020-01-25 00:00:00"
        }
      ]
    }
  },
  {
    "id": "",
    "name": "",
    "age": -1,
    "sex": -1,
    "address": "河南省商丘市虞城县",
    "myParentNCP": "unknown",
    "reportTime": "2020-02-03",
    "info": "王某某，女，41岁，现住虞城县李老家乡高庄村。患者1月24日接触过武汉返乡人员，27日出现胸闷、干咳、乏力、腹泻、发热症状，到卫生室就诊未见好转，30日就诊于虞城县人民医院，经市疾控中心检测确诊为新型冠状病毒肺炎确诊病例，目前体征平稳。已追踪到密切接触者35人，均居家隔离医学观察中。,\n  ",
    "path": {
      "2020-01-24": [
        {
          "lat": 34.406972,
          "lng": 115.834996,
          "address": "河南省商丘市虞城县",
          "time": "2020-01-24 00:00:00"
        }
      ]
    }
  },
  {
    "id": "",
    "name": "",
    "age": -1,
    "sex": -1,
    "address": "河南省商丘市梁园区",
    "myParentNCP": "unknown",
    "reportTime": "2020-02-03",
    "info": "冯某某，女，52岁，现住梁园区东风办事处豫立首府小区。2月2日出现症状，目前在市立医院就诊，3日经市疾控中心检测确诊为新型冠状病毒肺炎确诊病例，目前体征平稳。,\n  ",
    "path": {
      "2020-02-02": [
        {
          "lat": 34.450196,
          "lng": 115.620244,
          "address": "河南省商丘市梁园区",
          "time": "2020-02-02 00:00:00"
        }
      ]
    }
  },
  {
    "id": "",
    "name": "",
    "age": -1,
    "sex": -1,
    "address": "河南省商丘市柘城县",
    "myParentNCP": "unknown",
    "reportTime": "2020-02-03",
    "info": "张某某，男，44岁，现住柘城县春水街道德育巷。1月24日出现症状，目前在市立医院就诊，3日经市疾控中心检测确诊为新型冠状病毒肺炎确诊病例，目前体征平稳。,\n  ",
    "path": {
      "2020-01-24": [
        {
          "lat": 34.07513,
          "lng": 115.317926,
          "address": "柘城县",
          "time": "2020-01-24 00:00:00"
        }
      ]
    }
  },
  {
    "id": "",
    "name": "",
    "age": -1,
    "sex": -1,
    "address": "河南省商丘市柘城县",
    "myParentNCP": "unknown",
    "reportTime": "2020-02-03",
    "info": "仇某某，女，57岁，现住柘城县双河街道吴庄村。1月22日出现症状，目前在市立医院就诊，2日经市疾控中心检测确诊为新型冠状病毒肺炎确诊病例，目前体征平稳。,\n  ",
    "path": {
      "2020-01-22": [
        {
          "lat": 34.07513,
          "lng": 115.317926,
          "address": "柘城县",
          "time": "2020-01-22 00:00:00"
        }
      ]
    }
  },
  {
    "id": "",
    "name": "",
    "age": -1,
    "sex": -1,
    "address": "河南省商丘市睢阳区",
    "myParentNCP": "unknown",
    "reportTime": "2020-02-03",
    "info": "李某某，女，48岁，现住睢阳区新城办事处宇鑫国际小区。2月2日出现症状，目前在市立医院就诊，3日经市疾控中心检测确诊为新型冠状病毒肺炎确诊病例，目前体征平稳。,\n  ",
    "path": {
      "2020-02-02": [
        {
          "lat": 34.395449,
          "lng": 115.659773,
          "address": "河南省商丘市睢阳区",
          "time": "2020-02-02 00:00:00"
        }
      ]
    }
  },
  {
    "id": "",
    "name": "",
    "age": -1,
    "sex": -1,
    "address": "",
    "myParentNCP": "unknown",
    "reportTime": "2020-02-03",
    "info": "李某某，51岁，现住宁陵县孔集乡宋胡同村。1月31日出现症状，目前在市立医院就诊，3日经市疾控中心检测确诊为新型冠状病毒肺炎确诊病例，目前体征平稳。,\n  ",
    "path": {
      "2020-01-31": [
        {
          "lat": 34.467578,
          "lng": 115.320569,
          "address": "河南省商丘市宁陵县",
          "time": "2020-01-31 00:00:00"
        }
      ]
    }
  },
  {
    "id": "",
    "name": "",
    "age": -1,
    "sex": -1,
    "address": "河南省商丘市梁园区",
    "myParentNCP": "unknown",
    "reportTime": "2020-02-03",
    "info": "张某某，女，72岁，现住梁园区东风办事处豫立首府小区。2月2日出现症状，目前在市立医院就诊，3日经市疾控中心检测确诊为新型冠状病毒肺炎确诊病例，目前体征平稳。,\n  ",
    "path": {
      "2020-02-02": [
        {
          "lat": 34.450196,
          "lng": 115.620244,
          "address": "河南省商丘市梁园区",
          "time": "2020-02-02 00:00:00"
        }
      ]
    }
  },
  {
    "id": "",
    "name": "",
    "age": -1,
    "sex": -1,
    "address": "河南省商丘市睢阳区",
    "myParentNCP": "unknown",
    "reportTime": "2020-02-03",
    "info": "刘某某，女，68岁，现住睢阳区宋城办事处名门城书苑花园小区。1月27日出现症状，目前在市立医院就诊，3日经市疾控中心检测确诊为新型冠状病毒肺炎确诊病例，目前体征平稳。,\n  ",
    "path": {
      "2020-01-27": [
        {
          "lat": 34.395449,
          "lng": 115.659773,
          "address": "河南省商丘市睢阳区",
          "time": "2020-01-27 00:00:00"
        }
      ]
    }
  },
  {
    "id": "",
    "name": "",
    "age": -1,
    "sex": -1,
    "address": "河南省商丘市柘城县",
    "myParentNCP": "unknown",
    "reportTime": "2020-02-04",
    "info": "孙某某，男，43岁，现住柘城县春水街道办事处兴中道附近。患者1月26日出现发热、咳嗽等症状，2月4日经市疾控中心检测确诊为新型冠状病毒肺炎确诊病例，目前体征平稳。,\n  ",
    "path": {
      "2020-01-26": [
        {
          "lat": 34.07513,
          "lng": 115.317926,
          "address": "柘城县",
          "time": "2020-01-26 00:00:00"
        }
      ]
    }
  },
  {
    "id": "",
    "name": "",
    "age": -1,
    "sex": -1,
    "address": "河南省商丘市梁园区",
    "myParentNCP": "unknown",
    "reportTime": "2020-02-05",
    "info": "秦某某，男，27岁，现住梁园区李庄乡潘口南街村。1月25日，患者在室外环境中与一名武汉返乡人员有过交谈。患者2月1日，出现发热、咳嗽等症状，前往商丘市第一人民医院就诊，2月5日经市疾控中心检测确诊为新型冠状病毒肺炎确诊病例，目前体征平稳。目前追踪到密切接触者2人，均进行隔离观察。,\n  ",
    "path": {
      "2020-02-25": [
        {
          "lat": 34.450196,
          "lng": 115.620244,
          "address": "河南省商丘市梁园区",
          "time": "2020-02-25 00:00:00"
        }
      ]
    }
  },
  {
    "id": "",
    "name": "",
    "age": -1,
    "sex": -1,
    "address": "睢县",
    "myParentNCP": "",
    "reportTime": "2020-02-05",
    "info": "程某某，男，32岁，现住睢县尤吉屯乡潘庄村。武汉某公司员工，1月21日从武汉到睢县，2月1日身体不适由120急救专用车送睢县人民医院就诊，专家建议居家隔离观察，2月4日发热至睢县人民医院住院治疗，2月5日经市疾控中心检测确诊为新型冠状病毒肺炎确诊病例，目前体征平稳。目前追踪到密切接触者共9人，现在睢县人民医院医学观察。,\n",
    "path": {
      "2020-01-20": [
        {
          "lat": 30.625339,
          "lng": 114.260847,
          "address": "武汉",
          "time": "2020-01-21 00:00:00"
        }
      ],
      "2020-01-21": [
        {
          "lat": 34.452858,
          "lng": 115.078377,
          "address": "睢县",
          "time": "2020-01-21 00:00:00"
        }
      ]
    }
  },
  {
    "id": "",
    "name": "",
    "age": -1,
    "sex": -1,
    "address": "河南省商丘市柘城县",
    "myParentNCP": "unknown",
    "reportTime": "2020-02-05",
    "info": "张某某，男，81岁，现住柘城县张桥镇张桥村。1月25日与儿子（确诊病例）接触2小时左右。患者1月30日出现胸闷症状，到柘城县人民医院就诊，2月5日经市疾控中心检测确诊为新型冠状病毒肺炎确诊病例，目前体征平稳。目前追踪密切接触者36名，均在进行医学观察。,\n  ",
    "path": {
      "2020-01-25": [
        {
          "lat": 34.07513,
          "lng": 115.317926,
          "address": "柘城县",
          "time": "2020-01-25 00:00:00"
        }
      ]
    }
  },
  {
    "id": "",
    "name": "",
    "age": -1,
    "sex": -1,
    "address": "河南省商丘市夏邑县",
    "myParentNCP": "NSQ",
    "reportTime": "2020-02-05",
    "info": "董某某，男，24岁，现住夏邑县曹集乡东许庄村。患者1月21日从北京返回夏邑，2月4日有发热症状，到夏邑县人民医院就诊，2月5日被商丘市疾控中心检测为阳性，目前体征平稳。目前追踪密切接触者15名，均在进行医学观察。,\n  ",
    "path": {
      "2020-01-21": [
        {
          "lat": 34.246024,
          "lng": 116.150112,
          "address": "夏邑县",
          "time": "2020-01-21 00:00:00"
        }
      ]
    }
  },
  {
    "id": "",
    "name": "",
    "age": -1,
    "sex": -1,
    "address": "",
    "myParentNCP": "unknown",
    "reportTime": "2020-02-07",
    "info": "宋某某，男，44岁，家住宁陵县孔集乡宋胡洞东村。患者在浙江宁波打工， 22日到家，23日与新型冠状病毒感染的肺炎确诊患者（冯XX）同乘一辆车参加婚宴；2月1日出现症状，2月4日到宁陵县人民医院就诊，2月6日经市疾控中心检测确诊为新型冠状病毒肺炎确诊病例，目前体征平稳。追踪密切接触者共有15人，均进行隔离医学观察。,\n  ",
    "path": {
      "2020-01-23": [
        {
          "lat": 34.467578,
          "lng": 115.320569,
          "address": "河南省商丘市宁陵县",
          "time": "2020-01-23 00:00:00"
        }
      ]
    }
  },
  {
    "id": "",
    "name": "",
    "age": -1,
    "sex": -1,
    "address": "",
    "myParentNCP": "",
    "reportTime": "2020-02-07",
    "info": "郭某某，男，22岁，家住宁陵县城郊乡郭英村。现为武汉高校学生，1月23日回家，患者1月30日出现不明原因发热、咳嗽咳痰症状， 2月5日到宁陵县人民医院就诊。6日经市疾控中心检测确诊为新型冠状病毒肺炎确诊病例，目前体征平稳，追踪密切接触者共有17人，均进行隔离医学观察",
    "path": {
      "2020-01-22": [
        {
          "lat": 30.625339,
          "lng": 114.260847,
          "address": "武汉",
          "time": "2020-01-22 00:00:00"
        }
      ],
      "2020-01-23": [
        {
          "lat": 34.467578,
          "lng": 115.320569,
          "address": "河南省商丘市宁陵县",
          "time": "2020-01-23 00:00:00"
        }
      ]
    }
  },
  {
    "id": "",
    "name": "",
    "age": -1,
    "sex": -1,
    "address": "",
    "myParentNCP": "",
    "reportTime": "2020-02-07",
    "info": "黄某某，女，27岁，家住宁陵县刘楼乡胡店村。在武汉中心医院学习，1月19日从武汉回到宁陵县刘楼乡，2月2日出现发热、咽喉疼痛、偶有头痛、头晕、全身酸痛症状，自己在家自行口服药物治疗，2月3日去宁陵县人民医院就诊，经市疾控中心检测确诊为新型冠状病毒肺炎确诊病例，目前体征平稳，追踪密切接触者共有8人，均进行隔离医学观察。,\n  ",
    "path": {
      "2020-01-18": [
        {
          "lat": 30.625339,
          "lng": 114.260847,
          "address": "武汉",
          "time": "2020-01-18 00:00:00"
        }
      ],
      "2020-01-19": [
        {
          "lat": 34.467578,
          "lng": 115.320569,
          "address": "河南省商丘市宁陵县",
          "time": "2020-01-19 00:00:00"
        }
      ]
    }
  },
  {
    "id": "",
    "name": "",
    "age": -1,
    "sex": -1,
    "address": "河南省商丘市柘城县",
    "myParentNCP": "unknown",
    "reportTime": "2020-02-07",
    "info": "李某某，女，81岁，家住柘城县张桥镇张桥村。患者2月5日，出现症状， 2月6日经市疾控中心检测确诊为新型冠状病毒肺炎确诊病例，目前体征平稳。,\n  ",
    "path": {
      "2020-02-05": [
        {
          "lat": 34.07513,
          "lng": 115.317926,
          "address": "柘城县",
          "time": "2020-02-05 00:00:00"
        }
      ]
    }
  },
  {
    "id": "",
    "name": "",
    "age": -1,
    "sex": -1,
    "address": "河南省商丘市柘城县",
    "myParentNCP": "unknown",
    "reportTime": "2020-02-07",
    "info": "王某某，女，44岁，家住柘城县城关镇德育巷。患者1月29日，出现症状， 2月6日经市疾控中心检测确诊为新型冠状病毒肺炎确诊病例，目前体征平稳。,\n  ",
    "path": {
      "2020-01-29": [
        {
          "lat": 34.07513,
          "lng": 115.317926,
          "address": "柘城县",
          "time": "2020-01-29 00:00:00"
        }
      ]
    }
  },
  {
    "id": "",
    "name": "",
    "age": -1,
    "sex": -1,
    "address": "河南省商丘市睢阳区",
    "myParentNCP": "unknown",
    "reportTime": "2020-02-07",
    "info": "陆某某，男，73岁，家住睢阳区古宋办事处常路口村。患者1月22日无明显诱因出现心慌、乏力、食欲不振，未见好转；2月3日前往商丘市第一人民医院就诊，2月6日经市疾控中心检测确诊为新型冠状病毒肺炎确诊病例，目前体征平稳。追踪密切接触者共有5人，均进行隔离医学观察,\n  ",
    "path": {
      "2020-01-22": [
        {
          "lat": 34.395449,
          "lng": 115.659773,
          "address": "河南省商丘市睢阳区",
          "time": "2020-01-22 00:00:00"
        }
      ]
    }
  },
  {
    "id": "",
    "name": "",
    "age": -1,
    "sex": -1,
    "address": "河南省商丘市夏邑县",
    "myParentNCP": "unknown",
    "reportTime": "2020-02-08",
    "info": "贾某某，女，7岁，家住夏邑县会亭镇。患者与其母亲长期居住在家，无外出史。亲戚叶某、郭某一家五口人1月22日从武汉返回后居住患者家中（二人均为确诊病例）。患者2月4日感觉身体不适，到卫生室就诊；2月5日到夏邑县人民医院入院治疗，8日经市疾控中心检测确诊为新型冠状病毒肺炎确诊病例，目前体征平稳，对追踪的35名密切接触者均进行了隔离观察。,\n  ",
    "path": {
      "2020-01-22": [
        {
          "lat": 34.246024,
          "lng": 116.150112,
          "address": "夏邑县",
          "time": "2020-01-22 00:00:00"
        }
      ]
    }
  },
  {
    "id": "",
    "name": "",
    "age": -1,
    "sex": -1,
    "address": "河南省商丘市柘城县",
    "myParentNCP": "unknown",
    "reportTime": "2020-02-08",
    "info": "陈某某，女，57岁，现住柘城县春水街道办事处。1月25-27日与确诊病例张某同一时间、同一诊室输液，2月1日出现发热、咳嗽症状，在家自行服药一天效果不明显，于2月2-3日到卫生室就诊，3日晚到柘城县中西医结合医院就诊，4日到柘城县人民医院住院治疗，8日经市疾控中心检测确诊为新型冠状病毒肺炎确诊病例，目前体征平稳，对追踪的10名密切接触者均进行了隔离观察。,\n  ",
    "path": {
      "2020-01-25": [
        {
          "lat": 34.07513,
          "lng": 115.317926,
          "address": "柘城县",
          "time": "2020-01-25 00:00:00"
        }
      ]
    }
  },
  {
    "id": "",
    "name": "",
    "age": -1,
    "sex": -1,
    "address": "河南省商丘市柘城县",
    "myParentNCP": "unknown",
    "reportTime": "2020-02-08",
    "info": "王某某，女，57岁，现住柘城县凤凰街道。1月21-27日期间与其女儿密切接触，（其女儿2月5日确定为确诊病例）；1月14日因“活动后闷喘”收治入长江医院，1月22日病情好转出院；1月31日因胸闷、咳痰症状去柘城县人民医院治疗，8日经市疾控中心检测确诊为新型冠状病毒肺炎确诊病例，目前体征平稳，对追踪的84名密切接触者均进行了隔离观察。,\n  ",
    "path": {
      "2020-01-21": [
        {
          "lat": 34.07513,
          "lng": 115.317926,
          "address": "柘城县",
          "time": "2020-01-21 00:00:00"
        }
      ]
    }
  },
  {
    "id": "",
    "name": "",
    "age": -1,
    "sex": -1,
    "address": "河南省商丘市柘城县",
    "myParentNCP": "unknown",
    "reportTime": "2020-02-08",
    "info": "张某某，男，54岁，现住柘城县张桥镇。1月24日与家人聚餐，（其弟在2月3日确诊为新型冠状病毒患者），其父亲在柘城县人民医院心内科住院期间，张XX一直在医院陪护，（其父确诊为新型肺炎患者，其母亲李俊兰也相继确诊，）患者均与父母密切接触，于2月4日在县人民医院要求自行隔离，2月7日出现轻嗽症状，入住柘城县人民医院治疗，8日经市疾控中心检测确诊为新型冠状病毒肺炎确诊病例，目前体征平稳，对追踪的72名密切接触者均进行了隔离观察。,\n  ",
    "path": {
      "2020-01-24": [
        {
          "lat": 34.07513,
          "lng": 115.317926,
          "address": "柘城县",
          "time": "2020-01-24 00:00:00"
        }
      ]
    }
  },
  {
    "id": "",
    "name": "",
    "age": -1,
    "sex": -1,
    "address": "河南省商丘市柘城县",
    "myParentNCP": "unknown",
    "reportTime": "2020-02-08",
    "info": "左某某，男，5岁8个月，现住柘城县春水街道办事处。该患者一直居家，由爷爷奶奶抚养，患者父亲2020年1月21日坐厦门-郑州G2046动车（期间路过武汉）到郑州后转动车到商丘；患者母亲在1月11日坐厦门-兰州G3184动车（期间路过武汉）到商丘后转大巴车到柘城。2月1日晚上出现发烧、咳嗽、咳痰等症状，2月5日到柘城县人民医院就诊，8日经市疾控中心检测确诊为新型冠状病毒肺炎确诊病例，目前体征平稳，对追踪的23名密切接触者均进行了隔离观察。,\n  ",
    "path": {
      "2020-01-21": [
        {
          "lat": 34.07513,
          "lng": 115.317926,
          "address": "柘城县",
          "time": "2020-01-21 00:00:00"
        }
      ]
    }
  },
  {
    "id": "",
    "name": "",
    "age": -1,
    "sex": -1,
    "address": "河南省商丘市永城市",
    "myParentNCP": "unknown",
    "reportTime": "2020-02-08",
    "info": "洪某某，男，78岁，家住永城市马桥镇马庄村。患者2月6日出现症状，8日经市疾控中心检测确诊为新型冠状病毒肺炎确诊病例，目前体征平稳，对追踪的10名密切接触者均进行隔离观察。,\n  ",
    "path": {
      "2020-02-06": [
        {
          "lat": 33.935457,
          "lng": 116.456106,
          "address": "河南省商丘市永城市",
          "time": "2020-02-06 00:00:00"
        }
      ]
    }
  },
  {
    "id": "",
    "name": "",
    "age": -1,
    "sex": -1,
    "address": "河南省商丘市永城市",
    "myParentNCP": "unknown",
    "reportTime": "2020-02-08",
    "info": " 洪某某，男，55岁，家住永城市马桥镇马庄村。患者2月6日出现症状，8日经市疾控中心检测确诊为新型冠状病毒肺炎确诊病例，目前体征平稳，对追踪的10名密切接触者均进行隔离观察。,\n  ",
    "path": {
      "2020-02-06": [
        {
          "lat": 33.935457,
          "lng": 116.456106,
          "address": "河南省商丘市永城市",
          "time": "2020-02-06 00:00:00"
        }
      ]
    }
  }
]
